[{
    "id": "609746",
    "name": "Kenwood Academy High School",
    "street_address": "5015 S Blackstone Ave",
    "city":"Chicago",
    "state": "IL",
    "zip_code":"60615",
    "phone_number": "(773) 535-1350",
    "link": "http://schoolreports.cps.edu/SchoolProgressReport_Eng/Spring2011Eng_609746.pdf",
    "latitude": 41.80375479,
    "longitude": -87.59038395,
    "cps_rating": "Level 2",
    "sqrp_rating": "Level 2+",
    "total_points": 50
},
{
    "id": "609682",
    "name": "Ellen H Richards Career Academy High School",
    "street_address": "5009 S Laflin St",
    "city":"Chicago",
    "state": "IL",
    "zip_code":"60609",
    "phone_number": "(773) 535-4945",
    "link": "http://schoolreports.cps.edu/SchoolProgressReport_Eng/Spring2011Eng_609682.pdf",
    "latitude": 41.80285552,
    "longitude": -87.66224052,
    "cps_rating": "Level 2",
    "sqrp_rating": "Level 3",
    "total_points": 35
},
{
    "id": "609693",
    "name": "George Westinghouse High School",
    "street_address": "3223 W Franklin Blvd",
    "city":"Chicago",
    "state": "IL",
    "zip_code":"60624",
    "phone_number": "(773) 534-6400",
    "link": "http://schoolreports.cps.edu/SchoolProgressReport_Eng/Spring2011Eng_609693.pdf",
    "latitude": 41.88994963,
    "longitude": -87.70734353,
    "cps_rating": "Level 4",
    "sqrp_rating": "Level 3",
    "total_points": 15
}]